{
   "plus_code" : {
      "compound_code" : "WVHC+CV Colombo, Sri Lanka",
      "global_code" : "6JRXWVHC+CV"
   },
   "results" : [
      {
         "address_components" : [
            {
               "long_name" : "57",
               "short_name" : "57",
               "types" : [ "street_number" ]
            },
            {
               "long_name" : "Ketawalamulla Lane",
               "short_name" : "Ketawalamulla Ln",
               "types" : [ "route" ]
            },
            {
               "long_name" : "Colombo 09",
               "short_name" : "Colombo 09",
               "types" : [ "political", "sublocality", "sublocality_level_1" ]
            },
            {
               "long_name" : "Colombo",
               "short_name" : "Colombo",
               "types" : [ "locality", "political" ]
            },
            {
               "long_name" : "Colombo",
               "short_name" : "Colombo",
               "types" : [ "administrative_area_level_2", "political" ]
            },
            {
               "long_name" : "Western Province",
               "short_name" : "WP",
               "types" : [ "administrative_area_level_1", "political" ]
            },
            {
               "long_name" : "Sri Lanka",
               "short_name" : "LK",
               "types" : [ "country", "political" ]
            },
            {
               "long_name" : "00900",
               "short_name" : "00900",
               "types" : [ "postal_code" ]
            }
         ],
         "formatted_address" : "57 Ketawalamulla Ln, Colombo 00900, Sri Lanka",
         "geometry" : {
            "location" : {
               "lat" : 6.928631999999999,
               "lng" : 79.8722629
            },
            "location_type" : "ROOFTOP",
            "viewport" : {
               "northeast" : {
                  "lat" : 6.929980980291502,
                  "lng" : 79.87361188029151
               },
               "southwest" : {
                  "lat" : 6.927283019708497,
                  "lng" : 79.8709139197085
               }
            }
         },
         "place_id" : "ChIJOQDlWghZ4joRt7mys3mdRPU",
         "plus_code" : {
            "compound_code" : "WVHC+FW Colombo, Sri Lanka",
            "global_code" : "6JRXWVHC+FW"
         },
         "types" : [ "street_address" ]
      },
      {
         "address_components" : [
            {
               "long_name" : "61",
               "short_name" : "61",
               "types" : [ "street_number" ]
            },
            {
               "long_name" : "Ketawalamulla Lane",
               "short_name" : "Ketawalamulla Ln",
               "types" : [ "route" ]
            },
            {
               "long_name" : "Colombo 09",
               "short_name" : "Colombo 09",
               "types" : [ "political", "sublocality", "sublocality_level_1" ]
            },
            {
               "long_name" : "Colombo",
               "short_name" : "Colombo",
               "types" : [ "locality", "political" ]
            },
            {
               "long_name" : "Colombo",
               "short_name" : "Colombo",
               "types" : [ "administrative_area_level_2", "political" ]
            },
            {
               "long_name" : "Western Province",
               "short_name" : "WP",
               "types" : [ "administrative_area_level_1", "political" ]
            },
            {
               "long_name" : "Sri Lanka",
               "short_name" : "LK",
               "types" : [ "country", "political" ]
            },
            {
               "long_name" : "00900",
               "short_name" : "00900",
               "types" : [ "postal_code" ]
            }
         ],
         "formatted_address" : "61 Ketawalamulla Ln, Colombo 00900, Sri Lanka",
         "geometry" : {
            "location" : {
               "lat" : 6.9285038,
               "lng" : 79.87220119999999
            },
            "location_type" : "RANGE_INTERPOLATED",
            "viewport" : {
               "northeast" : {
                  "lat" : 6.929852780291502,
                  "lng" : 79.8735501802915
               },
               "southwest" : {
                  "lat" : 6.927154819708498,
                  "lng" : 79.87085221970848
               }
            }
         },
         "place_id" : "Ei02MSBLZXRhd2FsYW11bGxhIExuLCBDb2xvbWJvIDAwOTAwLCBTcmkgTGFua2EiGhIYChQKEgk_CmdaCFniOhET8OaYjF61QRA9",
         "types" : [ "street_address" ]
      },
      {
         "address_components" : [
            {
               "long_name" : "44",
               "short_name" : "44",
               "types" : [ "street_number" ]
            },
            {
               "long_name" : "Ketawalamulla Lane",
               "short_name" : "Ketawalamulla Ln",
               "types" : [ "route" ]
            },
            {
               "long_name" : "Colombo 09",
               "short_name" : "Colombo 09",
               "types" : [ "political", "sublocality", "sublocality_level_1" ]
            },
            {
               "long_name" : "Colombo",
               "short_name" : "Colombo",
               "types" : [ "locality", "political" ]
            },
            {
               "long_name" : "Colombo",
               "short_name" : "Colombo",
               "types" : [ "administrative_area_level_2", "political" ]
            },
            {
               "long_name" : "Western Province",
               "short_name" : "WP",
               "types" : [ "administrative_area_level_1", "political" ]
            },
            {
               "long_name" : "Sri Lanka",
               "short_name" : "LK",
               "types" : [ "country", "political" ]
            },
            {
               "long_name" : "00900",
               "short_name" : "00900",
               "types" : [ "postal_code" ]
            }
         ],
         "formatted_address" : "44 Ketawalamulla Ln, Colombo 00900, Sri Lanka",
         "geometry" : {
            "bounds" : {
               "northeast" : {
                  "lat" : 6.929035499999999,
                  "lng" : 79.872384
               },
               "southwest" : {
                  "lat" : 6.928248099999999,
                  "lng" : 79.8719983
               }
            },
            "location" : {
               "lat" : 6.9286201,
               "lng" : 79.87215049999999
            },
            "location_type" : "GEOMETRIC_CENTER",
            "viewport" : {
               "northeast" : {
                  "lat" : 6.929990780291502,
                  "lng" : 79.8735401302915
               },
               "southwest" : {
                  "lat" : 6.927292819708497,
                  "lng" : 79.8708421697085
               }
            }
         },
         "place_id" : "ChIJPwpnWghZ4joREvDmmIxetUE",
         "types" : [ "route" ]
      },
      {
         "address_components" : [
            {
               "long_name" : "Kuppiyawatta East",
               "short_name" : "Kuppiyawatta East",
               "types" : [ "neighborhood", "political" ]
            },
            {
               "long_name" : "Colombo 09",
               "short_name" : "Colombo 09",
               "types" : [ "political", "sublocality", "sublocality_level_1" ]
            },
            {
               "long_name" : "Colombo",
               "short_name" : "Colombo",
               "types" : [ "locality", "political" ]
            },
            {
               "long_name" : "Colombo",
               "short_name" : "Colombo",
               "types" : [ "administrative_area_level_2", "political" ]
            },
            {
               "long_name" : "Western Province",
               "short_name" : "WP",
               "types" : [ "administrative_area_level_1", "political" ]
            },
            {
               "long_name" : "Sri Lanka",
               "short_name" : "LK",
               "types" : [ "country", "political" ]
            },
            {
               "long_name" : "01000",
               "short_name" : "01000",
               "types" : [ "postal_code" ]
            }
         ],
         "formatted_address" : "Kuppiyawatta East, Colombo 01000, Sri Lanka",
         "geometry" : {
            "bounds" : {
               "northeast" : {
                  "lat" : 6.9310879,
                  "lng" : 79.8778246
               },
               "southwest" : {
                  "lat" : 6.9211068,
                  "lng" : 79.869963
               }
            },
            "location" : {
               "lat" : 6.9258829,
               "lng" : 79.8737836
            },
            "location_type" : "APPROXIMATE",
            "viewport" : {
               "northeast" : {
                  "lat" : 6.9310879,
                  "lng" : 79.8778246
               },
               "southwest" : {
                  "lat" : 6.9211068,
                  "lng" : 79.869963
               }
            }
         },
         "place_id" : "ChIJV6_huq1Z4joRFbYDMFJOz3U",
         "types" : [ "neighborhood", "political" ]
      },
      {
         "address_components" : [
            {
               "long_name" : "Colombo 09",
               "short_name" : "Colombo 09",
               "types" : [ "political", "sublocality", "sublocality_level_1" ]
            },
            {
               "long_name" : "Colombo",
               "short_name" : "Colombo",
               "types" : [ "locality", "political" ]
            },
            {
               "long_name" : "Colombo",
               "short_name" : "Colombo",
               "types" : [ "administrative_area_level_2", "political" ]
            },
            {
               "long_name" : "Western Province",
               "short_name" : "WP",
               "types" : [ "administrative_area_level_1", "political" ]
            },
            {
               "long_name" : "Sri Lanka",
               "short_name" : "LK",
               "types" : [ "country", "political" ]
            }
         ],
         "formatted_address" : "Colombo 09, Colombo, Sri Lanka",
         "geometry" : {
            "bounds" : {
               "northeast" : {
                  "lat" : 6.9434862,
                  "lng" : 79.88621409999999
               },
               "southwest" : {
                  "lat" : 6.9229299,
                  "lng" : 79.86585020000001
               }
            },
            "location" : {
               "lat" : 6.933238599999999,
               "lng" : 79.8772834
            },
            "location_type" : "APPROXIMATE",
            "viewport" : {
               "northeast" : {
                  "lat" : 6.9434862,
                  "lng" : 79.88621409999999
               },
               "southwest" : {
                  "lat" : 6.9229299,
                  "lng" : 79.86585020000001
               }
            }
         },
         "place_id" : "ChIJyRkytalZ4joRzzWPz_DRbII",
         "types" : [ "political", "sublocality", "sublocality_level_1" ]
      },
      {
         "address_components" : [
            {
               "long_name" : "01000",
               "short_name" : "01000",
               "types" : [ "postal_code" ]
            },
            {
               "long_name" : "Dehiwala-Mount Lavinia",
               "short_name" : "Dehiwala-Mount Lavinia",
               "types" : [ "locality", "political" ]
            },
            {
               "long_name" : "Colombo",
               "short_name" : "Colombo",
               "types" : [ "administrative_area_level_2", "political" ]
            },
            {
               "long_name" : "Western Province",
               "short_name" : "WP",
               "types" : [ "administrative_area_level_1", "political" ]
            },
            {
               "long_name" : "Sri Lanka",
               "short_name" : "LK",
               "types" : [ "country", "political" ]
            }
         ],
         "formatted_address" : "Dehiwala-Mount Lavinia 01000, Sri Lanka",
         "geometry" : {
            "bounds" : {
               "northeast" : {
                  "lat" : 6.9474725,
                  "lng" : 79.892681
               },
               "southwest" : {
                  "lat" : 6.9115221,
                  "lng" : 79.8464805
               }
            },
            "location" : {
               "lat" : 6.9277038,
               "lng" : 79.8660836
            },
            "location_type" : "APPROXIMATE",
            "viewport" : {
               "northeast" : {
                  "lat" : 6.9474725,
                  "lng" : 79.892681
               },
               "southwest" : {
                  "lat" : 6.9115221,
                  "lng" : 79.8464805
               }
            }
         },
         "place_id" : "ChIJl1K_z6db4joRuh9RO8km3xA",
         "types" : [ "postal_code" ]
      },
      {
         "address_components" : [
            {
               "long_name" : "Thimbirigasyaya",
               "short_name" : "Thimbirigasyaya",
               "types" : [ "administrative_area_level_3", "political" ]
            },
            {
               "long_name" : "Colombo",
               "short_name" : "Colombo",
               "types" : [ "administrative_area_level_2", "political" ]
            },
            {
               "long_name" : "Western Province",
               "short_name" : "WP",
               "types" : [ "administrative_area_level_1", "political" ]
            },
            {
               "long_name" : "Sri Lanka",
               "short_name" : "LK",
               "types" : [ "country", "political" ]
            }
         ],
         "formatted_address" : "Thimbirigasyaya, Sri Lanka",
         "geometry" : {
            "bounds" : {
               "northeast" : {
                  "lat" : 6.9433881,
                  "lng" : 79.889814
               },
               "southwest" : {
                  "lat" : 6.86243,
                  "lng" : 79.84556099999999
               }
            },
            "location" : {
               "lat" : 6.9113085,
               "lng" : 79.87747759999999
            },
            "location_type" : "APPROXIMATE",
            "viewport" : {
               "northeast" : {
                  "lat" : 6.9433881,
                  "lng" : 79.889814
               },
               "southwest" : {
                  "lat" : 6.86243,
                  "lng" : 79.84556099999999
               }
            }
         },
         "place_id" : "ChIJw31mWNZb4joRdq1YzOu_ix4",
         "types" : [ "administrative_area_level_3", "political" ]
      },
      {
         "address_components" : [
            {
               "long_name" : "Colombo",
               "short_name" : "Colombo",
               "types" : [ "locality", "political" ]
            },
            {
               "long_name" : "Colombo",
               "short_name" : "Colombo",
               "types" : [ "administrative_area_level_2", "political" ]
            },
            {
               "long_name" : "Western Province",
               "short_name" : "WP",
               "types" : [ "administrative_area_level_1", "political" ]
            },
            {
               "long_name" : "Sri Lanka",
               "short_name" : "LK",
               "types" : [ "country", "political" ]
            }
         ],
         "formatted_address" : "Colombo, Sri Lanka",
         "geometry" : {
            "bounds" : {
               "northeast" : {
                  "lat" : 6.9812866,
                  "lng" : 79.8900852
               },
               "southwest" : {
                  "lat" : 6.862390700000001,
                  "lng" : 79.8223258
               }
            },
            "location" : {
               "lat" : 6.9270786,
               "lng" : 79.861243
            },
            "location_type" : "APPROXIMATE",
            "viewport" : {
               "northeast" : {
                  "lat" : 6.9812866,
                  "lng" : 79.8900852
               },
               "southwest" : {
                  "lat" : 6.862390700000001,
                  "lng" : 79.8223258
               }
            }
         },
         "place_id" : "ChIJA3B6D9FT4joRjYPTMk0uCzI",
         "types" : [ "locality", "political" ]
      },
      {
         "address_components" : [
            {
               "long_name" : "Colombo",
               "short_name" : "Colombo",
               "types" : [ "administrative_area_level_2", "political" ]
            },
            {
               "long_name" : "Western Province",
               "short_name" : "WP",
               "types" : [ "administrative_area_level_1", "political" ]
            },
            {
               "long_name" : "Sri Lanka",
               "short_name" : "LK",
               "types" : [ "country", "political" ]
            }
         ],
         "formatted_address" : "Colombo, Sri Lanka",
         "geometry" : {
            "bounds" : {
               "northeast" : {
                  "lat" : 6.981051,
                  "lng" : 80.2232461
               },
               "southwest" : {
                  "lat" : 6.7154789,
                  "lng" : 79.84061199999999
               }
            },
            "location" : {
               "lat" : 6.9269557,
               "lng" : 79.8617306
            },
            "location_type" : "APPROXIMATE",
            "viewport" : {
               "northeast" : {
                  "lat" : 6.981051,
                  "lng" : 80.2232461
               },
               "southwest" : {
                  "lat" : 6.7154789,
                  "lng" : 79.84061199999999
               }
            }
         },
         "place_id" : "ChIJjXY40tpT4joRAGLfCGSohJ8",
         "types" : [ "administrative_area_level_2", "political" ]
      },
      {
         "address_components" : [
            {
               "long_name" : "Western Province",
               "short_name" : "WP",
               "types" : [ "administrative_area_level_1", "political" ]
            },
            {
               "long_name" : "Sri Lanka",
               "short_name" : "LK",
               "types" : [ "country", "political" ]
            }
         ],
         "formatted_address" : "Western Province, Sri Lanka",
         "geometry" : {
            "bounds" : {
               "northeast" : {
                  "lat" : 7.330474,
                  "lng" : 80.38140989999999
               },
               "southwest" : {
                  "lat" : 6.324857,
                  "lng" : 79.81655599999999
               }
            },
            "location" : {
               "lat" : 6.901608599999999,
               "lng" : 80.0087746
            },
            "location_type" : "APPROXIMATE",
            "viewport" : {
               "northeast" : {
                  "lat" : 7.330474,
                  "lng" : 80.38140989999999
               },
               "southwest" : {
                  "lat" : 6.324857,
                  "lng" : 79.81655599999999
               }
            }
         },
         "place_id" : "ChIJmZuWSbRS4joRJjAclJYvwKc",
         "types" : [ "administrative_area_level_1", "political" ]
      },
      {
         "address_components" : [
            {
               "long_name" : "Sri Lanka",
               "short_name" : "LK",
               "types" : [ "country", "political" ]
            }
         ],
         "formatted_address" : "Sri Lanka",
         "geometry" : {
            "bounds" : {
               "northeast" : {
                  "lat" : 10.03377,
                  "lng" : 82.14479999999999
               },
               "southwest" : {
                  "lat" : 5.6816,
                  "lng" : 79.26769999999999
               }
            },
            "location" : {
               "lat" : 7.873053999999999,
               "lng" : 80.77179699999999
            },
            "location_type" : "APPROXIMATE",
            "viewport" : {
               "northeast" : {
                  "lat" : 10.03377,
                  "lng" : 82.14479999999999
               },
               "southwest" : {
                  "lat" : 5.6816,
                  "lng" : 79.26769999999999
               }
            }
         },
         "place_id" : "ChIJnR5a9jxZ4joRjNPiALSkPeE",
         "types" : [ "country", "political" ]
      }
   ],
   "status" : "OK"
}
